lat,lon,title,text,ims_id,button_text,post_id,icon
-0.973781,32.775362,Victoriajärvi,"Selkälokkimme talvehtimisalue on Victoriajärvi, joka sijaitsee Tansanian, Ugandan ja Kenian alueella. Siellä lokit viettävät talven kalastellen auringonnousun ja -laskun hetkinä. Päivällä on nimittäin liian kirkasta ja yöllä liian pimeää onnistuneeseen saalistukseen. Talvehtimispaikassa on omat vaaransa, suurimpana niistä ympäristömyrkyt. Victoriajärvi on erittäin saastunut ja järven ympäristömyrkyt siirtyvät aikuisista linnuista niiden poikasiin. Myrkyt ovat yksi syy selkälokin uhanalaisuuteen.",,,,
27.1924082,33.6169029,Hurghada,"Tuulivoimalan lapaan törmääminen on yksi vaara selkälokkimme muuttomatkalla. Egyptin itärannikolla on useita tuulivoimapuistoja, joihin muuttolinnut usein päätyvät tuulten ja maaston muotojen takia. Toivottavasti lokkimme välttää törmäykset! Riski on onneksi pieni, mutta olemassa.",,,,
31.2257723,32.1506108,Suezin kanavan/Saharan ylitys,"Saharan ylitys on linnulle melkoinen haaste. Tämä maailman suurin hiekka-aavikko ulottuu Egyptiin asti, mutta sen kuuluisat pyramidit jäävät selkälokilta näkemättä, kun linnun muuttoreitti kaartaa Punaisen meren rantaviivan tuntumassa kohti Suezin kanavaa. Vahvana lentäjänä selkälokki selviytyy aavikon ylilennosta ilman välilaskuja, mutta väsyneenäkin sen on pysyttävä tarkkaavaisena – linnun on varottava metsästäjien luoteja ja verkkopyydyksiä esimerkiksi Port Saidin kaupungin tuntumassa. ",14-svyle-45302531972ca8abd3,,,
31.3994983,33.762643,Lähi-Itä,"Selkälokin lentoreitti voi muuttua kartalla yhtäkkiä kummalliseksi syheröksi, kun lintu lentää konfliktialueiden tuntumassa. Esimerkiksi Sudanissa ja Välimerellä Gazan, Israelin, Libanonin sekä Syyrian lähellä GPS-häirintä on toisinaan voimakasta ja voi vaikuttaa lähettimen signaaliin. Todellisuudessa lintu lentää melko suoraa reittiä. Sen kannattaa pysyä reilusti meren yllä, sillä sodissa kuolee ja vammautuu aina myös paljon eläimiä.",,,,
41.0052041,28.847374,Istanbul ja vuoristoinen Eurooppa,Selkälokkimme oletettu muuttoreitti viistää Mustanmeren länsirantaa. Reitti sivuaa myös 15 miljoonan asukkaan Istanbulia. Tämä turkkilainen Euroopan ja Aasian väliin levittäytyvä suurkaupunki näyttää lokin silmissä varmasti loputtomalta. Kohta selkälokki alkaa lähestyä jo vuoristoista Eurooppaa. ,,,,
45.6524485,25.5140629,Karpaatit,"Selkälokkien reitti menee luultavasti Karpaattien vuoriston yli Romanian kohdalla. Varsinkin pikkulinnuille korkean vuoriston ylittäminen on raskas urakka, joten ne pyrkivät usein kiertämään vuoristot. Selkälokkimme on kuitenkin taitava lentäjä, joka pyyhältää vuoristojen yli kiertäen ehkäpä vain kaikkein korkeimmat huiput.",,,,
54.4273218,18.1265422,Puolan rannikko,Välillä selkälokkimme saattaa pysähtyä lepäämään ja tankkaamaan ravintoa. Puolan rannikko on lokillemme oiva hengailupaikka. Eteläisen itämeren rantaan voi jäädä hetkeksi kalastamaan ja toipumaan lentomatkan rasituksista. Edelleen muuttomatkan uhkana on ampuminen. Monet ihmiset näkevät lokit virheellisesti tuholaisina ja niitä voidaan ampua esimerkiksi kalankasvatuslaitoksilla. ,,,,
54.7115816,20.3821305,Kaliningrad,"Kaliningradin alueella saattaa olla odotettavissa GPS-häirintää. Se sekoittaa selkälokkimme satelliittidatan niin, että  lentoreittiin tulee omituista sykeröä, vaikka lintumme lentää alueen yli varsin suoraviivaisesti. Häirinnän takia voi olla, ettemme pysty seuraamaan lokkimme matkaa alueella. Lintu voi jopa hävitä välillä kartalta.",,,,